[
  {"name":"Entebbe International Airport","type":"AIR","province":"UG-C","district":"WAKISO","lat":0.0424,"lon":32.4435,"opening_hours":"24/7","status":"OPEN","iata":"EBB","icao":"HUEN","border_country":null,"is_major_entry":true,"is_national_level":true,"is_osbp":false},
  {"name":"Kabalega International Airport","type":"AIR","province":"UG-W","district":"HOIMA","lat":1.7536,"lon":31.3947,"opening_hours":"24/7","status":"OPEN","iata":null,"icao":null,"border_country":null,"is_major_entry":true,"is_national_level":true,"is_osbp":false},
  {"name":"Arua Airport","type":"AIR","province":"UG-N","district":"ARUA","lat":3.0500,"lon":30.9170,"opening_hours":"06:00-18:00","status":"OPEN","iata":"RUA","icao":"HUAR","border_country":null,"is_major_entry":false,"is_national_level":false,"is_osbp":false},
  {"name":"Gulu Airport","type":"AIR","province":"UG-N","district":"GULU","lat":2.8060,"lon":32.2720,"opening_hours":"06:00-18:00","status":"OPEN","iata":"ULU","icao":"HUGU","border_country":null,"is_major_entry":false,"is_national_level":false,"is_osbp":false},
  {"name":"Soroti Airport","type":"AIR","province":"UG-E","district":"SOROTI","lat":1.7280,"lon":33.6230,"opening_hours":"06:00-18:00","status":"OPEN","iata":"SRT","icao":"HUSO","border_country":null,"is_major_entry":false,"is_national_level":false,"is_osbp":false},
  {"name":"Kasese Airport","type":"AIR","province":"UG-W","district":"KASESE","lat":0.1830,"lon":30.1000,"opening_hours":"06:00-18:00","status":"OPEN","iata":"KSE","icao":"HUKS","border_country":null,"is_major_entry":false,"is_national_level":false,"is_osbp":false},
  {"name":"Mbarara Airport","type":"AIR","province":"UG-W","district":"MBARARA","lat":-0.5560,"lon":30.6010,"opening_hours":"06:00-18:00","status":"OPEN","iata":"MBQ","icao":"HUMA","border_country":null,"is_major_entry":false,"is_national_level":false,"is_osbp":false},
  {"name":"Jinja Airport","type":"AIR","province":"UG-E","district":"JINJA","lat":0.4490,"lon":33.1950,"opening_hours":"06:00-18:00","status":"OPEN","iata":"JIN","icao":"HUJI","border_country":null,"is_major_entry":false,"is_national_level":false,"is_osbp":false},
  {"name":"Tororo Airport","type":"AIR","province":"UG-E","district":"TORORO","lat":0.6830,"lon":34.1670,"opening_hours":"06:00-18:00","status":"OPEN","iata":"TRY","icao":"HUTO","border_country":null,"is_major_entry":false,"is_national_level":false,"is_osbp":false},
  {"name":"Kisoro Airport","type":"AIR","province":"UG-W","district":"KISORO","lat":-1.2851,"lon":29.7081,"opening_hours":"06:00-18:00","status":"OPEN","iata":"KXO","icao":"HUKI","border_country":null,"is_major_entry":false,"is_national_level":false,"is_osbp":false},
  {"name":"Moyo Airport","type":"AIR","province":"UG-N","district":"MOYO","lat":3.6500,"lon":31.7333,"opening_hours":"DAYLIGHT","status":"OPEN","iata":"OYG","icao":null,"border_country":null,"is_major_entry":false,"is_national_level":false,"is_osbp":false},
  {"name":"Pakuba Airfield","type":"AIR","province":"UG-N","district":"NWOYA","lat":2.3170,"lon":31.5500,"opening_hours":"DAYLIGHT","status":"OPEN","iata":"PAF","icao":"HUPA","border_country":null,"is_major_entry":false,"is_national_level":false,"is_osbp":false},
  {"name":"Kidepo Airport","type":"AIR","province":"UG-N","district":"KAABONG","lat":3.7170,"lon":33.9500,"opening_hours":"DAYLIGHT","status":"OPEN","iata":null,"icao":"HUKD","border_country":null,"is_major_entry":false,"is_national_level":false,"is_osbp":false},

  {"name":"Busia Border","type":"LAND","province":"UG-E","district":"BUSIA","lat":0.4564,"lon":34.0917,"opening_hours":"24/7","status":"OPEN","iata":null,"icao":null,"border_country":"Kenya","is_major_entry":true,"is_national_level":false,"is_osbp":true},
  {"name":"Malaba Border","type":"LAND","province":"UG-E","district":"TORORO","lat":0.6354,"lon":34.2754,"opening_hours":"24/7","status":"OPEN","iata":null,"icao":null,"border_country":"Kenya","is_major_entry":true,"is_national_level":false,"is_osbp":true},
  {"name":"Suam Border","type":"LAND","province":"UG-E","district":"BUKWO","lat":1.3700,"lon":34.7500,"opening_hours":"06:00-22:00","status":"OPEN","iata":null,"icao":null,"border_country":"Kenya","is_major_entry":false,"is_national_level":false,"is_osbp":false},
  {"name":"Lwakhakha Border","type":"LAND","province":"UG-E","district":"NAMISINDWA","lat":0.9270,"lon":34.4050,"opening_hours":"06:00-22:00","status":"OPEN","iata":null,"icao":null,"border_country":"Kenya","is_major_entry":false,"is_national_level":false,"is_osbp":true},
  {"name":"Karita Border","type":"LAND","province":"UG-N","district":"AMUDAT","lat":1.8167,"lon":34.9333,"opening_hours":"06:00-18:00","status":"OPEN","iata":null,"icao":null,"border_country":"Kenya","is_major_entry":false,"is_national_level":false,"is_osbp":false},

  {"name":"Elegu Border","type":"LAND","province":"UG-N","district":"AMURU","lat":3.6470,"lon":31.9060,"opening_hours":"24/7","status":"OPEN","iata":null,"icao":null,"border_country":"South Sudan","is_major_entry":true,"is_national_level":false,"is_osbp":false},
  {"name":"Oraba Border","type":"LAND","province":"UG-N","district":"KOBOKO","lat":3.4750,"lon":31.0470,"opening_hours":"06:00-18:00","status":"OPEN","iata":null,"icao":null,"border_country":"South Sudan","is_major_entry":false,"is_national_level":false,"is_osbp":false},
  {"name":"Madi-Opei Border","type":"LAND","province":"UG-N","district":"LAMWO","lat":3.7830,"lon":32.7500,"opening_hours":"06:00-18:00","status":"OPEN","iata":null,"icao":null,"border_country":"South Sudan","is_major_entry":false,"is_national_level":false,"is_osbp":false},
  {"name":"Ngomoromo Border","type":"LAND","province":"UG-N","district":"LAMWO","lat":3.8500,"lon":33.2500,"opening_hours":"06:00-18:00","status":"OPEN","iata":null,"icao":null,"border_country":"South Sudan","is_major_entry":false,"is_national_level":false,"is_osbp":false},
  {"name":"Afogi Border","type":"LAND","province":"UG-N","district":"MOYO","lat":3.6833,"lon":31.7167,"opening_hours":"06:00-18:00","status":"OPEN","iata":null,"icao":null,"border_country":"South Sudan","is_major_entry":false,"is_national_level":false,"is_osbp":false},

  {"name":"Mpondwe Border","type":"LAND","province":"UG-W","district":"KASESE","lat":0.0150,"lon":29.7220,"opening_hours":"24/7","status":"OPEN","iata":null,"icao":null,"border_country":"DRC","is_major_entry":true,"is_national_level":false,"is_osbp":true},
  {"name":"Bunagana Border","type":"LAND","province":"UG-W","district":"KISORO","lat":-1.3970,"lon":29.6280,"opening_hours":"06:00-18:00","status":"OPEN","iata":null,"icao":null,"border_country":"DRC","is_major_entry":false,"is_national_level":false,"is_osbp":false},
  {"name":"Vurra Border","type":"LAND","province":"UG-N","district":"ARUA","lat":2.8320,"lon":30.9170,"opening_hours":"06:00-18:00","status":"OPEN","iata":null,"icao":null,"border_country":"DRC","is_major_entry":false,"is_national_level":false,"is_osbp":false},
  {"name":"Lia Border","type":"LAND","province":"UG-N","district":"ARUA","lat":2.9000,"lon":30.8167,"opening_hours":"06:00-18:00","status":"OPEN","iata":null,"icao":null,"border_country":"DRC","is_major_entry":false,"is_national_level":false,"is_osbp":false},
  {"name":"Goli Border","type":"LAND","province":"UG-N","district":"ZOMBO","lat":2.5860,"lon":30.9530,"opening_hours":"06:00-22:00","status":"OPEN","iata":null,"icao":null,"border_country":"DRC","is_major_entry":false,"is_national_level":false,"is_osbp":true},
  {"name":"Padea Border","type":"LAND","province":"UG-N","district":"KOBOKO","lat":3.4500,"lon":30.9580,"opening_hours":"06:00-18:00","status":"OPEN","iata":null,"icao":null,"border_country":"DRC","is_major_entry":false,"is_national_level":false,"is_osbp":false},
  {"name":"Ntoroko Border Post","type":"LAND","province":"UG-W","district":"NTOROKO","lat":1.0500,"lon":30.5167,"opening_hours":"06:00-18:00","status":"OPEN","iata":null,"icao":null,"border_country":"DRC","is_major_entry":false,"is_national_level":false,"is_osbp":true},

  {"name":"Katuna (Gatuna) Border","type":"LAND","province":"UG-W","district":"KABALE","lat":-1.2390,"lon":29.9930,"opening_hours":"06:00-22:00","status":"OPEN","iata":null,"icao":null,"border_country":"Rwanda","is_major_entry":true,"is_national_level":false,"is_osbp":false},
  {"name":"Mirama Hills Border","type":"LAND","province":"UG-W","district":"NTUNGAMO","lat":-1.0508,"lon":30.4600,"opening_hours":"24/7","status":"OPEN","iata":null,"icao":null,"border_country":"Rwanda","is_major_entry":true,"is_national_level":false,"is_osbp":true},
  {"name":"Cyanika Border","type":"LAND","province":"UG-W","district":"KISORO","lat":-1.2500,"lon":29.6500,"opening_hours":"06:00-18:00","status":"OPEN","iata":null,"icao":null,"border_country":"Rwanda","is_major_entry":false,"is_national_level":false,"is_osbp":false},
  {"name":"Kamwezi Border","type":"LAND","province":"UG-W","district":"RUKIGA","lat":-1.2333,"lon":30.0833,"opening_hours":"06:00-18:00","status":"OPEN","iata":null,"icao":null,"border_country":"Rwanda","is_major_entry":false,"is_national_level":false,"is_osbp":false},

  {"name":"Mutukula Border","type":"LAND","province":"UG-C","district":"KYOTERA","lat":-1.0000,"lon":31.4500,"opening_hours":"24/7","status":"OPEN","iata":null,"icao":null,"border_country":"Tanzania","is_major_entry":true,"is_national_level":false,"is_osbp":true},
  {"name":"Kikagati Border","type":"LAND","province":"UG-W","district":"ISINGIRO","lat":-1.0240,"lon":30.7390,"opening_hours":"06:00-18:00","status":"OPEN","iata":null,"icao":null,"border_country":"Tanzania","is_major_entry":false,"is_national_level":false,"is_osbp":false},

  {"name":"Port Bell","type":"LAKE","province":"UG-C","district":"KAMPALA","lat":0.2810,"lon":32.6620,"opening_hours":"06:00-22:00","status":"OPEN","iata":null,"icao":null,"border_country":"Tanzania","is_major_entry":true,"is_national_level":false,"is_osbp":false},
  {"name":"Jinja Pier","type":"LAKE","province":"UG-E","district":"JINJA","lat":0.4180,"lon":33.2080,"opening_hours":"06:00-22:00","status":"OPEN","iata":null,"icao":null,"border_country":"Tanzania","is_major_entry":false,"is_national_level":false,"is_osbp":false},
  {"name":"Bukasa Port","type":"LAKE","province":"UG-C","district":"WAKISO","lat":0.2680,"lon":32.6540,"opening_hours":"06:00-22:00","status":"OPEN","iata":null,"icao":null,"border_country":"Tanzania","is_major_entry":false,"is_national_level":false,"is_osbp":false}
]
